{
"type": "FeatureCollection",
"name": "facilities_w_props",
"crs": { "type": "name", "properties": { "name": "urn:ogc:def:crs:OGC:1.3:CRS84" } },
"features": [
{ "type": "Feature", "properties": { "name": "ADVENTIST HEALTH COLUMBIA GORGE ", "address": "1700 E 19TH STREET", "City": "THE DALLES", "state": "OR", "postcode": 97058, "county license expiry license": "WASCO 12/31/25 14-0500", "type": "hospital" }, "geometry": { "type": "Point", "coordinates": [ -121.163631, 45.587261 ] } },
{ "type": "Feature", "properties": { "name": "ADVENTIST HEALTH PORTLAND", "address": "10123 SE MARKET STREET", "City": "PORTLAND", "state": "OR", "postcode": 97216, "county license expiry license": "MULTNOMAH 12/31/25 14-1127", "type": "hospital" }, "geometry": { "type": "Point", "coordinates": [ -122.556304, 45.51287 ] } },
{ "type": "Feature", "properties": { "name": "ADVENTIST HEALTH TILLAMOOK ", "address": "1000 THIRD STREET", "City": "TILLAMOOK", "state": "OR", "postcode": 97141, "county license expiry license": " TILLAMOOK 12/31/25 14-1177", "type": "hospital" }, "geometry": { "type": "Point", "coordinates": [ -123.838894, 45.453333 ] } },
{ "type": "Feature", "properties": { "name": "ASANTE ASHLAND COMMUNITY HOSPITAL ", "address": "280 MAPLE STREET", "City": "ASHLAND", "state": "OR", "postcode": 97520, "county license expiry license": " JACKSON 12/31/25 14-1445", "type": "hospital" }, "geometry": { "type": "Point", "coordinates": [ -122.724815, 42.205398 ] } },
{ "type": "Feature", "properties": { "name": "ASANTE ROGUE REGIONAL MEDICAL CENTER ", "address": "2825 E BARNETT ROAD", "City": "MEDFORD", "state": "OR", "postcode": 97504, "county license expiry license": "JACKSON 12/31/25 14-0451", "type": "hospital" }, "geometry": { "type": "Point", "coordinates": [ -122.83153, 42.31804 ] } },
{ "type": "Feature", "properties": { "name": "ASANTE THREE RIVERS MEDICAL CENTER 500", "address": "SW RAMSEY AVENUE", "City": "GRANTS PASS", "state": "OR", "postcode": 97527, "county license expiry license": " JOSEPHINE 12/31/25 14-1439", "type": "hospital" }, "geometry": { "type": "Point", "coordinates": [ -123.328156, 42.437005 ] } },
{ "type": "Feature", "properties": { "name": "BAY AREA HOSPITAL", "address": "1775 THOMPSON ROAD", "City": "COOS BAY", "state": "OR", "postcode": 97420, "county license expiry license": "COOS 12/31/25 14-1024", "type": "hospital" }, "geometry": { "type": "Point", "coordinates": [ -124.232964, 43.383671 ] } },
{ "type": "Feature", "properties": { "name": "BLUE MOUNTAIN HOSPITAL", "address": "170 FORD ROAD", "City": "JOHN DAY", "state": "OR", "postcode": 97845, "county license expiry license": "GRANT 12/31/25 14-0703", "type": "hospital" }, "geometry": { "type": "Point", "coordinates": [ -124.232677, 43.38312 ] } },
{ "type": "Feature", "properties": { "name": "CEDAR HILLS HOSPITAL ", "address": "10300 SW EASTRIDGE STREET", "City": "PORTLAND", "state": "OR", "postcode": 97225, "county license expiry license": " WASHINGTON 12/31/25 14-1468", "type": "hospital" }, "geometry": { "type": "Point", "coordinates": [ -118.959569, 44.41731 ] } },
{ "type": "Feature", "properties": { "name": "COLUMBIA MEMORIAL HOSPITAL ", "address": "2111 EXCHANGE STREET", "City": "ASTORIA", "state": "OR", "postcode": 97103, "county license expiry license": " CLATSOP 12/31/25 14-1146", "type": "hospital" }, "geometry": { "type": "Point", "coordinates": [ -122.782895, 45.505751 ] } },
{ "type": "Feature", "properties": { "name": "COQUILLE VALLEY HOSPITAL ", "address": "940 EAST 5TH STREET", "City": "COQUILLE", "state": "OR", "postcode": 97423, "county license expiry license": " COOS 12/31/25 14-0875", "type": "hospital" }, "geometry": { "type": "Point", "coordinates": [ -123.81858, 46.187774 ] } },
{ "type": "Feature", "properties": { "name": "CURRY GENERAL HOSPITAL", "address": "94220 FOURTH STREET", "City": "GOLD BEACH", "state": "OR", "postcode": 97444, "county license expiry license": " CURRY 12/31/25 14-0251", "type": "hospital" }, "geometry": { "type": "Point", "coordinates": [ -124.179765, 43.179704 ] } },
{ "type": "Feature", "properties": { "name": "GOOD SAMARITAN REGIONAL MEDICAL CENTER", "address": "3600 NW SAMARITAN DRIVE", "City": "CORVALLIS", "state": "OR", "postcode": 97330, "county license expiry license": " BENTON 12/31/25 14-1074", "type": "hospital" }, "geometry": { "type": "Point", "coordinates": [ -124.418596, 42.411346 ] } },
{ "type": "Feature", "properties": { "name": "GOOD SHEPHERD MEDICAL CENTER ", "address": "610 NW 11TH STREET", "City": "HERMISTON", "state": "OR", "postcode": 97838, "county license expiry license": " UMATILLA 12/31/25 14-0334", "type": "hospital" }, "geometry": { "type": "Point", "coordinates": [ -123.252776, 44.602361 ] } },
{ "type": "Feature", "properties": { "name": "GRANDE RONDE HOSPITAL", "address": "900 SUNSET DRIVE", "City": "LA GRANDE", "state": "OR", "postcode": 97850, "county license expiry license": "UNION 12/31/25 14-0728", "type": "hospital" }, "geometry": { "type": "Point", "coordinates": [ -119.308361, 45.847974 ] } },
{ "type": "Feature", "properties": { "name": "HARNEY DISTRICT HOSPITAL ", "address": "557 W WASHINGTON STREET", "City": "BURNS", "state": "OR", "postcode": 97720, "county license expiry license": " HARNEY 12/31/25 14-0704", "type": "hospital" }, "geometry": { "type": "Point", "coordinates": [ -118.105835, 45.319274 ] } },
{ "type": "Feature", "properties": { "name": "HILLSBORO MEDICAL CENTER ", "address": "335 SE 8TH AVENUE", "City": "HILLSBORO", "state": "OR", "postcode": 97123, "county license expiry license": " WASHINGTON 12/31/25 14-0095", "type": "hospital" }, "geometry": { "type": "Point", "coordinates": [ -119.061395, 43.588449 ] } },
{ "type": "Feature", "properties": { "name": "KAISER FOUNDATION HOSPITAL", "address": "WESTSIDE 2875 NE STUCKI AVE", "City": "HILLSBORO", "state": "OR", "postcode": 97124, "county license expiry license": " WASHINGTON 12/31/25 14-1472", "type": "hospital" }, "geometry": { "type": "Point", "coordinates": [ -122.978199, 45.519388 ] } },
{ "type": "Feature", "properties": { "name": "KAISER SUNNYSIDE MEDICAL CENTER", "address": "10180 SE SUNNYSIDE ROAD", "City": "CLACKAMAS", "state": "OR", "postcode": 97015, "county license expiry license": " CLACKAMAS 12/31/25 14-1073", "type": "hospital" }, "geometry": { "type": "Point", "coordinates": [ -122.957482, 45.527845 ] } },
{ "type": "Feature", "properties": { "name": "LAKE DISTRICT HOSPITAL", "address": "700 SOUTH J STREET", "City": "LAKEVIEW", "state": "OR", "postcode": 97630, "county license expiry license": " LAKE 12/31/25 14-0896", "type": "hospital" }, "geometry": { "type": "Point", "coordinates": [ -122.560939, 45.431674 ] } },
{ "type": "Feature", "properties": { "name": "LEGACY EMANUEL MEDICAL CENTER", "address": "2801 N GANTENBEIN AVENUE", "City": "PORTLAND", "state": "OR", "postcode": 97227, "county license expiry license": " MULTNOMAH 12/31/25 14-0056", "type": "hospital" }, "geometry": { "type": "Point", "coordinates": [ -120.351962, 42.181055 ] } },
{ "type": "Feature", "properties": { "name": "LEGACY GOOD SAMARITAN MEDICAL CENTER", "address": "1015 NW 22ND AVENUE, W121", "City": "PORTLAND", "state": "OR", "postcode": 97210, "county license expiry license": " MULTNOMAH 12/31/25 14-0027", "type": "hospital" }, "geometry": { "type": "Point", "coordinates": [ -122.670094, 45.544207 ] } },
{ "type": "Feature", "properties": { "name": "LEGACY MERIDIAN PARK MEDICAL CENTER", "address": "19300 SW 65TH AVENUE", "City": "TUALATIN", "state": "OR", "postcode": 97062, "county license expiry license": " WASHINGTON 12/31/25 14-1336", "type": "hospital" }, "geometry": { "type": "Point", "coordinates": [ -122.726626, 45.544163 ] } },
{ "type": "Feature", "properties": { "name": "LEGACY MOUNT HOOD MEDICAL CENTER", "address": "24800 SE STARK STREET", "City": "GRESHAM", "state": "OR", "postcode": 97030, "county license expiry license": " MULTNOMAH 12/31/25 14-1337", "type": "hospital" }, "geometry": { "type": "Point", "coordinates": [ -122.742122, 45.379648 ] } },
{ "type": "Feature", "properties": { "name": "LEGACY SILVERTON MEDICAL CENTER", "address": "342 FAIRVIEW STREET", "City": "SILVERTON", "state": "OR", "postcode": 97381, "county license expiry license": " MARION 12/31/25 14-0030", "type": "hospital" }, "geometry": { "type": "Point", "coordinates": [ -122.407496, 45.517158 ] } },
{ "type": "Feature", "properties": { "name": "LOWER UMPQUA HOSPITAL DISTRICT", "address": "600 RANCH ROAD", "City": "REEDSPORT", "state": "OR", "postcode": 97467, "county license expiry license": " DOUGLAS 12/31/25 14-0639", "type": "hospital" }, "geometry": { "type": "Point", "coordinates": [ -122.790594, 45.003957 ] } },
{ "type": "Feature", "properties": { "name": "MCKENZIE-WILLAMETTE MEDICAL CENTER", "address": "1460 G STREET", "City": "SPRINGFIELD", "state": "OR", "postcode": 97477, "county license expiry license": " LANE 12/31/25 14-0701", "type": "hospital" }, "geometry": { "type": "Point", "coordinates": [ -124.136498, 43.694353 ] } },
{ "type": "Feature", "properties": { "name": "MERCY MEDICAL CENTER", "address": "2700 NW STEWART PARKWAY", "City": "ROSEBURG", "state": "OR", "postcode": 97471, "county license expiry license": " DOUGLAS 12/31/25 14-1133", "type": "hospital" }, "geometry": { "type": "Point", "coordinates": [ -123.003278, 44.052931 ] } },
{ "type": "Feature", "properties": { "name": "OHSU HOSPITAL AND CLINICS", "address": "3181 SW SAM JACKSON PARK ROAD", "City": "PORTLAND", "state": "OR", "postcode": 97239, "county license expiry license": "MULTNOMAH 12/31/25 14-1008", "type": "hospital" }, "geometry": { "type": "Point", "coordinates": [ -123.36693, 43.241282 ] } },
{ "type": "Feature", "properties": { "name": "OREGON STATE HOSPITAL DISTINCT PART ", "address": "2600 CENTER STREET NE", "City": "SALEM", "state": "OR", "postcode": 97301, "county license expiry license": "MARION 12/31/25 14-0160", "type": "hospital" }, "geometry": { "type": "Point", "coordinates": [ -122.685261, 45.501118 ] } },
{ "type": "Feature", "properties": { "name": "OREGON STATE HOSPITAL JUNCTION CITY ", "address": "29398 RECOVERY WAY", "City": "JUNCTION CITY", "state": "OR", "postcode": 97448, "county license expiry license": " LANE 12/31/25 14-1474", "type": "hospital" }, "geometry": { "type": "Point", "coordinates": [ -123.004274, 44.938245 ] } },
{ "type": "Feature", "properties": { "name": "OREGON STATE HOSPITAL- SALEM", "address": "2600 CENTER STREET NE", "City": "SALEM", "state": "OR", "postcode": 97301, "county license expiry license": " MARION 12/31/15 14-0160", "type": "hospital" }, "geometry": { "type": "Point", "coordinates": [ -123.195302, 44.1656 ] } },
{ "type": "Feature", "properties": { "name": "PEACE HARBOR MEDICAL CENTER", "address": "400 9TH STREET", "City": "FLORENCE", "state": "OR", "postcode": 97439, "county license expiry license": " LANE 12/31/25 14-0711", "type": "hospital" }, "geometry": { "type": "Point", "coordinates": [ -123.004274, 44.938245 ] } },
{ "type": "Feature", "properties": { "name": "PEACEHEALTH COTTAGE GROVE COMMUNITY MEDICAL CENTER ", "address": "1515 VILLAGE DRIVE", "City": "COTTAGE GROVE", "state": "OR", "postcode": 97424, "county license expiry license": " LANE 12/31/25 40-0223", "type": "hospital" }, "geometry": { "type": "Point", "coordinates": [ -124.117549, 43.97318 ] } },
{ "type": "Feature", "properties": { "name": "PIONEER MEMORIAL HOSPITAL ", "address": "564 E PIONEER DRIVE", "City": "HEPPNER", "state": "OR", "postcode": 97836, "county license expiry license": "MORROW 12/31/25 14-1444", "type": "hospital" }, "geometry": { "type": "Point", "coordinates": [ -123.039445, 43.803726 ] } },
{ "type": "Feature", "properties": { "name": "PROVIDENCE HOOD RIVER MEMORIAL HOSPITAL ", "address": "810 12TH STREET", "City": "HOOD RIVER", "state": "OR", "postcode": 97031, "county license expiry license": " HOOD RIVER 12/31/25 14-1452", "type": "hospital" }, "geometry": { "type": "Point", "coordinates": [ -119.548608, 45.355793 ] } },
{ "type": "Feature", "properties": { "name": "PROVIDENCE MEDFORD MEDICAL CENTER", "address": "1111 CRATER LAKE AVENUE", "City": "MEDFORD", "state": "OR", "postcode": 97504, "county license expiry license": " JACKSON 12/31/25 14-0734", "type": "hospital" }, "geometry": { "type": "Point", "coordinates": [ -121.524155, 45.704603 ] } },
{ "type": "Feature", "properties": { "name": "PROVIDENCE MILWAUKIE HOSPITAL ", "address": "10150 SE 32ND AVENUE", "City": "MILWAUKIE", "state": "OR", "postcode": 97222, "county license expiry license": "CLACKAMAS 12/31/25 14-1430", "type": "hospital" }, "geometry": { "type": "Point", "coordinates": [ -122.863166, 42.339663 ] } },
{ "type": "Feature", "properties": { "name": "PROVIDENCE NEWBERG MEDICAL CENTER ", "address": "1001 PROVIDENCE DRIVE", "City": "NEWBERG", "state": "OR", "postcode": 97132, "county license expiry license": "YAMHILL 12/31/25 14-1438", "type": "hospital" }, "geometry": { "type": "Point", "coordinates": [ -122.627767, 45.449759 ] } },
{ "type": "Feature", "properties": { "name": "PROVIDENCE PORTLAND MEDICAL CENTER", "address": "4805 NE GLISAN STREET", "City": "PORTLAND", "state": "OR", "postcode": 97213, "county license expiry license": " MULTNOMAH 12/31/25 14-0012", "type": "hospital" }, "geometry": { "type": "Point", "coordinates": [ -122.934947, 45.308705 ] } },
{ "type": "Feature", "properties": { "name": "PROVIDENCE SEASIDE HOSPITAL ", "address": "725 S WAHANNA ROAD", "City": "SEASIDE", "state": "OR", "postcode": 97138, "county license expiry license": "CLATSOP 12/31/25 14-1231", "type": "hospital" }, "geometry": { "type": "Point", "coordinates": [ -122.612101, 45.528052 ] } },
{ "type": "Feature", "properties": { "name": "PROVIDENCE ST VINCENT MEDICAL CENTER ", "address": "9205 SW BARNES ROAD", "City": "PORTLAND", "state": "OR", "postcode": 97225, "county license expiry license": "WASHINGTON 12/31/25 14-0912", "type": "hospital" }, "geometry": { "type": "Point", "coordinates": [ -123.912222, 45.988835 ] } },
{ "type": "Feature", "properties": { "name": "PROVIDENCE WILLAMETTE FALLS MEDICAL CENTER ", "address": "1500 DIVISION STREET", "City": "OREGON CITY", "state": "OR", "postcode": 97045, "county license expiry license": "CLACKAMAS 12/31/25 14-1471", "type": "hospital" }, "geometry": { "type": "Point", "coordinates": [ -122.77232, 45.510582 ] } },
{ "type": "Feature", "properties": { "name": "SACRED HEART MEDICAL CENTER RIVERBEND", "address": " 3333 RIVERBEND DRIVE", "City": "SPRINGFIELD", "state": "OR", "postcode": 97477, "county license expiry license": "LANE 12/31/25 14-0014", "type": "hospital" }, "geometry": { "type": "Point", "coordinates": [ -122.587578, 45.356774 ] } },
{ "type": "Feature", "properties": { "name": "SAINT ALPHONSUS MEDICAL CENTER - BAKER CITY ", "address": "3325 POCAHONTAS ROAD", "City": "BAKER CITY", "state": "OR", "postcode": 97814, "county license expiry license": " BAKER 12/31/25 14-1469", "type": "hospital" }, "geometry": { "type": "Point", "coordinates": [ -123.027327, 44.080925 ] } },
{ "type": "Feature", "properties": { "name": "SAINT ALPHONSUS MEDICAL CENTER ONTARIO", "address": "351 SW 9TH STREET", "City": "ONTARIO", "state": "OR", "postcode": 97914, "county license expiry license": " MALHEUR 12/31/25 14-1470", "type": "hospital" }, "geometry": { "type": "Point", "coordinates": [ -117.847428, 44.794789 ] } },
{ "type": "Feature", "properties": { "name": "SALEM HEALTH WEST VALLEY", "address": "525 SE WASHINGTON STREET", "City": "DALLAS", "state": "OR", "postcode": 97338, "county license expiry license": "POLK 12/31/25 14-1461", "type": "hospital" }, "geometry": { "type": "Point", "coordinates": [ -116.976472, 44.025339 ] } },
{ "type": "Feature", "properties": { "name": "SALEM HOSPITAL ", "address": "890 OAK STREET, SE", "City": "SALEM", "state": "OR", "postcode": 97301, "county license expiry license": "MARION 12/31/25 14-1428", "type": "hospital" }, "geometry": { "type": "Point", "coordinates": [ -123.30988, 44.919033 ] } },
{ "type": "Feature", "properties": { "name": "SAMARITAN ALBANY GENERAL HOSPITAL", "address": "1046 6TH AVENUE SW", "City": "ALBANY", "state": "OR", "postcode": 97321, "county license expiry license": " LINN 12/31/25 14-1459", "type": "hospital" }, "geometry": { "type": "Point", "coordinates": [ -123.034132, 44.932582 ] } },
{ "type": "Feature", "properties": { "name": "SAMARITAN LEBANON COMMUNITY HOSPITAL ", "address": "525 N SANTIAM HIGHWAY", "City": "LEBANON", "state": "OR", "postcode": 97355, "county license expiry license": "LINN 12/31/25 14-1453", "type": "hospital" }, "geometry": { "type": "Point", "coordinates": [ -123.11636, 44.632155 ] } },
{ "type": "Feature", "properties": { "name": "SAMARITAN NORTH LINCOLN HOSPITAL ", "address": "3043 NE 28TH STREET", "City": "LINCOLN CITY", "state": "OR", "postcode": 97367, "county license expiry license": "LINCOLN 12/31/25 14-1456", "type": "hospital" }, "geometry": { "type": "Point", "coordinates": [ -122.90662, 44.550346 ] } },
{ "type": "Feature", "properties": { "name": "SAMARITAN PACIFIC COMMUNITY HOSPITAL", "address": "930 SW ABBEY STREET", "City": "NEWPORT", "state": "OR", "postcode": 97365, "county license expiry license": " LINCOLN 12/31/25 14-1460", "type": "hospital" }, "geometry": { "type": "Point", "coordinates": [ -123.994103, 44.985838 ] } },
{ "type": "Feature", "properties": { "name": "SANTIAM HOSPITAL & CLINICS", "address": "1401 N 10TH AVENUE", "City": "STAYTON", "state": "OR", "postcode": 97383, "county license expiry license": " MARION 12/31/25 14-0709", "type": "hospital" }, "geometry": { "type": "Point", "coordinates": [ -124.059086, 44.628949 ] } },
{ "type": "Feature", "properties": { "name": "SHRINERS HOSPITAL FOR CHILDREN - PORTLAND ", "address": "3101 SW SAM JACKSON PARK ROAD", "City": "PORTLAND", "state": "OR", "postcode": 97239, "county license expiry license": "MULTNOMAH 12/31/25 14-0073", "type": "hospital" }, "geometry": { "type": "Point", "coordinates": [ -122.785354, 44.805217 ] } },
{ "type": "Feature", "properties": { "name": "SKY LAKES MEDICAL CENTER", "address": "2865 DAGGETT AVENUE", "City": "KLAMATH FALLS", "state": "OR", "postcode": 97601, "county license expiry license": " KLAMATH 12/31/25 14-0724", "type": "hospital" }, "geometry": { "type": "Point", "coordinates": [ -122.685261, 45.501118 ] } },
{ "type": "Feature", "properties": { "name": "SOUTHERN COOS HOSPITAL & HEALTH CENTER ", "address": "900 11TH STREET SE", "City": "BANDON", "state": "OR", "postcode": 97411, "county license expiry license": "COOS 12/31/25 14-0809", "type": "hospital" }, "geometry": { "type": "Point", "coordinates": [ -121.785319, 42.252821 ] } },
{ "type": "Feature", "properties": { "name": "ST ANTHONY HOSPITAL", "address": "2801 ST ANTHONY WAY", "City": "PENDLETON", "state": "OR", "postcode": 97801, "county license expiry license": " UMATILLA 12/31/25 14-0034", "type": "hospital" }, "geometry": { "type": "Point", "coordinates": [ -124.402379, 43.112696 ] } },
{ "type": "Feature", "properties": { "name": "ST CHARLES BEND CAMPUS", "address": "2500 NE NEFF ROAD", "City": "BEND", "state": "OR", "postcode": 97701, "county license expiry license": " DESCHUTES 12/31/25 14-1457", "type": "hospital" }, "geometry": { "type": "Point", "coordinates": [ -118.812493, 45.648409 ] } },
{ "type": "Feature", "properties": { "name": "ST CHARLES MADRAS ", "address": "470 NE A STREET", "City": "MADRAS", "state": "OR", "postcode": 97741, "county license expiry license": "JEFFERSON 12/31/25 14-1473", "type": "hospital" }, "geometry": { "type": "Point", "coordinates": [ -121.269796, 44.068257 ] } },
{ "type": "Feature", "properties": { "name": "ST CHARLES MEDICAL CENTER PRINEVILLE ", "address": "384 SE COMBS FLAT ROAD", "City": "PRINEVILLE", "state": "OR", "postcode": 97754, "county license expiry license": "CROOK 12/31/25 14-1466", "type": "hospital" }, "geometry": { "type": "Point", "coordinates": [ -121.120002, 44.637456 ] } },
{ "type": "Feature", "properties": { "name": "ST CHARLES REDMOND CAMPUS", "address": "1253 NW CANAL BLVD", "City": "REDMOND", "state": "OR", "postcode": 97756, "county license expiry license": " DESCHUTES 12/31/25 14-1458", "type": "hospital" }, "geometry": { "type": "Point", "coordinates": [ -120.825233, 44.297546 ] } },
{ "type": "Feature", "properties": { "name": "SUTTER COAST HOSPITAL", "address": "555 5TH STREET", "City": "BROOKINGS", "state": "OR", "postcode": 97415, "county license expiry license": "CURRY 12/31/25 14-1463", "type": "hospital" }, "geometry": { "type": "Point", "coordinates": [ -121.1696, 44.288199 ] } },
{ "type": "Feature", "properties": { "name": "VIBRA SPECIALTY HOSPITAL OF PORTLAND", "address": "10300 NE HANCOCK STREET", "City": "PORTLAND", "state": "OR", "postcode": 97220, "county license expiry license": "MULTNOMAH 12/31/25 14-1465", "type": "hospital" }, "geometry": { "type": "Point", "coordinates": [ -124.288272, 42.062375 ] } },
{ "type": "Feature", "properties": { "name": "WALLOWA MEMORIAL HOSPITAL ", "address": "601 MEDICAL PARKWAY", "City": "ENTERPRISE", "state": "OR", "postcode": 97828, "county license expiry license": "WALLOWA 12/31/25 14-0068", "type": "hospital" }, "geometry": { "type": "Point", "coordinates": [ -122.557494, 45.53549 ] } },
{ "type": "Feature", "properties": { "name": "WILLAMETTE VALLEY MEDICAL CENTER ", "address": "2700 SE STRATUS AVE. ", "City": "MCMINNVILLE", "state": "OR", "postcode": 97128, "county license expiry license": " YAMHILL 12/31/25 14-1450", "type": "hospital" }, "geometry": { "type": "Point", "coordinates": [ -117.284779, 45.432591 ] } },
{ "type": "Feature", "properties": { "name": "ALMA MIDWIFERY SERVICES, LLC", "address": "1608 SE ANKENY STREET", "City": "PORTLAND", "state": "OR", "postcode": 97214, "county license expiry license": " MULTNOMAH 12/31/25 07-1561", "type": "birthing center" }, "geometry": { "type": "Point", "coordinates": [ -123.165675, 45.199494 ] } },
{ "type": "Feature", "properties": { "name": "ANDALUZ WATERBIRTH CENTER", "address": "3323 SW NAITO PARKWAY", "City": "PORTLAND", "state": "OR", "postcode": 97239, "county license expiry license": "MULTNOMAH 12/31/25 07-1672", "type": "birthing center" }, "geometry": { "type": "Point", "coordinates": [ -122.649242, 45.521961 ] } },
{ "type": "Feature", "properties": { "name": "ASTORIA BIRTH CENTER AND FAMILY MEDICINE", "address": "1406 MARINE DRIVE", "City": "ASTORIA", "state": "OR", "postcode": 97103, "county license expiry license": "CLATSOP 12/31/25 07-1660", "type": "birthing center" }, "geometry": { "type": "Point", "coordinates": [ -122.678224, 45.498986 ] } },
{ "type": "Feature", "properties": { "name": "BELLA VIE GENTLE BIRTH CENTER", "address": "13160 JERUSALEM HILL ROAD, NW ", "City": "SALEM", "state": "OR", "postcode": 97304, "county license expiry license": " YAMHILL 12/31/25 07-1587", "type": "birthing center" }, "geometry": { "type": "Point", "coordinates": [ -123.828017, 46.189498 ] } },
{ "type": "Feature", "properties": { "name": "BEND BIRTH CENTER", "address": "61533 PARRELL ROAD", "City": "BEND", "state": "OR", "postcode": 97702, "county license expiry license": "DESCHUTES 12/31/25 07-1589", "type": "birthing center" }, "geometry": { "type": "Point", "coordinates": [ -123.838789, 46.172653 ] } },
{ "type": "Feature", "properties": { "name": "CANYON MEDICAL CENTER", "address": "2100 SW CAMELOT COURT", "City": "PORTLAND", "state": "OR", "postcode": 97225, "county license expiry license": "WASHINGTON 12/31/25 07-1629", "type": "birthing center" }, "geometry": { "type": "Point", "coordinates": [ -123.031352, 44.917382 ] } },
{ "type": "Feature", "properties": { "name": "CORVALLIS BIRTH CENTER ", "address": "2314 NW KINGS BOULEVARD, SUITE A", "City": "CORVALLIS", "state": "OR", "postcode": 97330, "county license expiry license": "BENTON 12/31/25 07-1683", "type": "birthing center" }, "geometry": { "type": "Point", "coordinates": [ -121.3062, 44.032858 ] } },
{ "type": "Feature", "properties": { "name": "GROWING FAMILY BIRTH CENTER, LLC ", "address": "701 N 5TH STREET, SUITE B-1010", "City": "LEBANON", "state": "OR", "postcode": 97355, "county license expiry license": "LINN 12/31/25 07-1613", "type": "birthing center" }, "geometry": { "type": "Point", "coordinates": [ -121.314869, 44.016271 ] } },
{ "type": "Feature", "properties": { "name": "KLAMATH BIRTH CENTER", "address": "1803 MAIN STREET, SUITE A", "City": "KLAMATH FALLS", "state": "OR", "postcode": 97601, "county license expiry license": " KLAMATH 12/31/25 07-1676", "type": "birthing center" }, "geometry": { "type": "Point", "coordinates": [ -121.323008, 44.007447 ] } },
{ "type": "Feature", "properties": { "name": "NOVA VIDA MIDWIVES FREE STANDING BIRTH CENTER ", "address": "3013 N BANK ROAD", "City": "OTIS", "state": "OR", "postcode": 97368, "county license expiry license": "LINCOLN 12/31/25 07-1678", "type": "birthing center" }, "geometry": { "type": "Point", "coordinates": [ -122.747305, 45.505186 ] } },
{ "type": "Feature", "properties": { "name": "OREGON BIRTH AND WELLNESS CENTER ", "address": "890 BELTLINE ROAD", "City": "SPRINGFIELD", "state": "OR", "postcode": 97477, "county license expiry license": "LANE 12/31/25 07-1682", "type": "birthing center" }, "geometry": { "type": "Point", "coordinates": [ -123.274047, 44.577978 ] } },
{ "type": "Feature", "properties": { "name": "OUR COMMUNITY BIRTH CENTER ", "address": "188 WEST B STREET, BLDG O", "City": "SPRINGFIELD", "state": "OR", "postcode": 97477, "county license expiry license": " LANE 12/31/25 07-1666", "type": "birthing center" }, "geometry": { "type": "Point", "coordinates": [ -122.904672, 44.537703 ] } },
{ "type": "Feature", "properties": { "name": "ROGUE BIRTH CENTER, LLC", "address": " 1453 REDWOOD CIRCLE", "City": "GRANTS PASS", "state": "OR", "postcode": 97527, "county license expiry license": "JACKSON 12/31/25 07-1641", "type": "birthing center" }, "geometry": { "type": "Point", "coordinates": [ -122.887866, 44.503522 ] } }
]
}
